[
  { "nimi": "Tampereen poliisiasema (pääpoliisiasema)", "kunta": "Tampere", "lat": 61.4937, "lon": 23.7702, "paatehtavat": "Yleisen järjestyksen ja turvallisuuden ylläpito, rikosten ennaltaehkäisy ja tutkinta, lupahallinto, valmius- ja varautumistehtävät", "maanpuolustusmerkitys": "Ylläpitää yhteiskunnan sisäistä turvallisuutta, viranomaisjärjestystä ja toimintakykyä poikkeus- ja kriisitilanteissa osana kokonaisturvallisuutta." },
  { "nimi": "Ikaalisten poliisiasema", "kunta": "Ikaalinen", "lat": 61.7709, "lon": 23.0653, "paatehtavat": "Yleisen järjestyksen ja turvallisuuden ylläpito, rikosten ennaltaehkäisy ja tutkinta, lupahallinto", "maanpuolustusmerkitys": "Ylläpitää yhteiskunnan sisäistä turvallisuutta, viranomaisjärjestystä ja toimintakykyä poikkeus- ja kriisitilanteissa osana kokonaisturvallisuutta." },
  { "nimi": "Nokian poliisiasema", "kunta": "Nokia", "lat": 61.4763, "lon": 23.5060, "paatehtavat": "Yleisen järjestyksen ja turvallisuuden ylläpito, rikosten ennaltaehkäisy ja tutkinta, lupahallinto", "maanpuolustusmerkitys": "Ylläpitää yhteiskunnan sisäistä turvallisuutta, viranomaisjärjestystä ja toimintakykyä poikkeus- ja kriisitilanteissa osana kokonaisturvallisuutta." },
  { "nimi": "Kangasalan poliisiasema", "kunta": "Kangasala", "lat": 61.4635, "lon": 24.0764, "paatehtavat": "Yleisen järjestyksen ja turvallisuuden ylläpito, rikosten ennaltaehkäisy ja tutkinta, lupahallinto", "maanpuolustusmerkitys": "Ylläpitää yhteiskunnan sisäistä turvallisuutta, viranomaisjärjestystä ja toimintakykyä poikkeus- ja kriisitilanteissa osana kokonaisturvallisuutta." },
  { "nimi": "Sastamalan poliisiasema", "kunta": "Sastamala", "lat": 61.3436, "lon": 22.9084, "paatehtavat": "Yleisen järjestyksen ja turvallisuuden ylläpito, rikosten ennaltaehkäisy ja tutkinta, lupahallinto", "maanpuolustusmerkitys": "Ylläpitää yhteiskunnan sisäistä turvallisuutta, viranomaisjärjestystä ja toimintakykyä poikkeus- ja kriisitilanteissa osana kokonaisturvallisuutta." },
  { "nimi": "Valkeakosken poliisiasema", "kunta": "Valkeakoski", "lat": 61.2666, "lon": 24.0313, "paatehtavat": "Yleisen järjestyksen ja turvallisuuden ylläpito, rikosten ennaltaehkäisy ja tutkinta, lupahallinto", "maanpuolustusmerkitys": "Ylläpitää yhteiskunnan sisäistä turvallisuutta, viranomaisjärjestystä ja toimintakykyä poikkeus- ja kriisitilanteissa osana kokonaisturvallisuutta." },
  { "nimi": "Oriveden poliisiasema", "kunta": "Orivesi", "lat": 61.6773, "lon": 24.3562, "paatehtavat": "Yleisen järjestyksen ja turvallisuuden ylläpito, rikosten ennaltaehkäisy ja tutkinta, lupahallinto", "maanpuolustusmerkitys": "Ylläpitää yhteiskunnan sisäistä turvallisuutta, viranomaisjärjestystä ja toimintakykyä poikkeus- ja kriisitilanteissa osana kokonaisturvallisuutta." },
  { "nimi": "Mänttä-Vilppulan poliisiasema", "kunta": "Mänttä-Vilppula", "lat": 62.0292, "lon": 24.6271, "paatehtavat": "Yleisen järjestyksen ja turvallisuuden ylläpito, rikosten ennaltaehkäisy ja tutkinta, lupahallinto", "maanpuolustusmerkitys": "Ylläpitää yhteiskunnan sisäistä turvallisuutta, viranomaisjärjestystä ja toimintakykyä poikkeus- ja kriisitilanteissa osana kokonaisturvallisuutta." },
  { "nimi": "Virtain poliisiasema", "kunta": "Virrat", "lat": 62.2412, "lon": 23.7804, "paatehtavat": "Yleisen järjestyksen ja turvallisuuden ylläpito, rikosten ennaltaehkäisy ja tutkinta, lupahallinto", "maanpuolustusmerkitys": "Ylläpitää yhteiskunnan sisäistä turvallisuutta, viranomaisjärjestystä ja toimintakykyä poikkeus- ja kriisitilanteissa osana kokonaisturvallisuutta." },
  { "nimi": "Poliisiammattikorkeakoulu", "kunta": "Tampere", "lat": 61.4480, "lon": 23.8560, "paatehtavat": "Poliisien perus- ja täydennyskoulutus, tutkimus ja kehittäminen", "maanpuolustusmerkitys": "Sisäisen turvallisuuden osaamisen ja viranomaisvalmiuden ylläpito poikkeusoloissa." } 
]
