[
  {"nimi":"Eteläinen seurakunta","kunta":"Tampere","tyyppi":"seurakunta","lat":61.483,"lon":23.75,"paatehtavat":"Seurakunnallinen toiminta ja hengellinen palvelu","maanpuolustusmerkitys":"Yhteiskunnan henkisen kriisinsietokyvyn tukeminen"},
  {"nimi":"Harjun seurakunta","kunta":"Tampere","tyyppi":"seurakunta","lat":61.507,"lon":23.79,"paatehtavat":"Seurakunnallinen toiminta ja hengellinen palvelu","maanpuolustusmerkitys":"Yhteiskunnan henkisen kriisinsietokyvyn tukeminen"},
  {"nimi":"Messukylän seurakunta","kunta":"Tampere","tyyppi":"seurakunta","lat":61.507,"lon":23.842,"paatehtavat":"Seurakunnallinen toiminta ja hengellinen palvelu","maanpuolustusmerkitys":"Yhteiskunnan henkisen kriisinsietokyvyn tukeminen"},
  {"nimi":"Tuomiokirkkoseurakunta","kunta":"Tampere","tyyppi":"seurakunta","lat":61.4978,"lon":23.761,"paatehtavat":"Seurakunnallinen toiminta ja hengellinen palvelu","maanpuolustusmerkitys":"Yhteiskunnan henkisen kriisinsietokyvyn tukeminen"},
  {"nimi":"Tammerfors svenska församling","kunta":"Tampere","tyyppi":"seurakunta","lat":61.4978,"lon":23.761,"paatehtavat":"Seurakunnallinen toiminta ja hengellinen palvelu","maanpuolustusmerkitys":"Yhteiskunnan henkisen kriisinsietokyvyn tukeminen"},
  {"nimi":"Pirkkalan seurakunta","kunta":"Pirkkala","tyyppi":"seurakunta","lat":61.461,"lon":23.632,"paatehtavat":"Seurakunnallinen toiminta ja hengellinen palvelu","maanpuolustusmerkitys":"Yhteiskunnan henkisen kriisinsietokyvyn tukeminen"},
  {"nimi":"Kangasalan seurakunta","kunta":"Kangasala","tyyppi":"seurakunta","lat":61.463,"lon":24.076,"paatehtavat":"Seurakunnallinen toiminta ja hengellinen palvelu","maanpuolustusmerkitys":"Yhteiskunnan henkisen kriisinsietokyvyn tukeminen"},
  {"nimi":"Ylöjärven seurakunta","kunta":"Ylöjärvi","tyyppi":"seurakunta","lat":61.556,"lon":23.596,"paatehtavat":"Seurakunnallinen toiminta ja hengellinen palvelu","maanpuolustusmerkitys":"Yhteiskunnan henkisen kriisinsietokyvyn tukeminen"},
  {"nimi":"Nokian seurakunta","kunta":"Nokia","tyyppi":"seurakunta","lat":61.476,"lon":23.505,"paatehtavat":"Seurakunnallinen toiminta ja hengellinen palvelu","maanpuolustusmerkitys":"Yhteiskunnan henkisen kriisinsietokyvyn tukeminen"},
  {"nimi":"Lempäälän seurakunta","kunta":"Lempäälä","tyyppi":"seurakunta","lat":61.313,"lon":23.752,"paatehtavat":"Seurakunnallinen toiminta ja hengellinen palvelu","maanpuolustusmerkitys":"Yhteiskunnan henkisen kriisinsietokyvyn tukeminen"},
  {"nimi":"Vesilahden seurakunta","kunta":"Vesilahti","tyyppi":"seurakunta","lat":61.308,"lon":23.616,"paatehtavat":"Seurakunnallinen toiminta ja hengellinen palvelu","maanpuolustusmerkitys":"Yhteiskunnan henkisen kriisinsietokyvyn tukeminen"},
  {"nimi":"Akaan seurakunta","kunta":"Akaa","tyyppi":"seurakunta","lat":61.167,"lon":23.87,"paatehtavat":"Seurakunnallinen toiminta ja hengellinen palvelu","maanpuolustusmerkitys":"Yhteiskunnan henkisen kriisinsietokyvyn tukeminen"},
  {"nimi":"Valkeakosken seurakunta","kunta":"Valkeakoski","tyyppi":"seurakunta","lat":61.264,"lon":24.03,"paatehtavat":"Seurakunnallinen toiminta ja hengellinen palvelu","maanpuolustusmerkitys":"Yhteiskunnan henkisen kriisinsietokyvyn tukeminen"},
  {"nimi":"Pälkäneen seurakunta","kunta":"Pälkäne","tyyppi":"seurakunta","lat":61.339,"lon":24.269,"paatehtavat":"Seurakunnallinen toiminta ja hengellinen palvelu","maanpuolustusmerkitys":"Yhteiskunnan henkisen kriisinsietokyvyn tukeminen"},
  {"nimi":"Sastamalan seurakunta","kunta":"Sastamala","tyyppi":"seurakunta","lat":61.34,"lon":22.907,"paatehtavat":"Seurakunnallinen toiminta ja hengellinen palvelu","maanpuolustusmerkitys":"Yhteiskunnan henkisen kriisinsietokyvyn tukeminen"},
  {"nimi":"Ikaalisten seurakunta","kunta":"Ikaalinen","tyyppi":"seurakunta","lat":61.768,"lon":23.065,"paatehtavat":"Seurakunnallinen toiminta ja hengellinen palvelu","maanpuolustusmerkitys":"Yhteiskunnan henkisen kriisinsietokyvyn tukeminen"},
  {"nimi":"Hämeenkyrön seurakunta","kunta":"Hämeenkyrö","tyyppi":"seurakunta","lat":61.64,"lon":23.195,"paatehtavat":"Seurakunnallinen toiminta ja hengellinen palvelu","maanpuolustusmerkitys":"Yhteiskunnan henkisen kriisinsietokyvyn tukeminen"},
  {"nimi":"Parkanon seurakunta","kunta":"Parkano","tyyppi":"seurakunta","lat":62.009,"lon":23.025,"paatehtavat":"Seurakunnallinen toiminta ja hengellinen palvelu","maanpuolustusmerkitys":"Yhteiskunnan henkisen kriisinsietokyvyn tukeminen"},
  {"nimi":"Kihniön seurakunta","kunta":"Kihniö","tyyppi":"seurakunta","lat":62.208,"lon":23.182,"paatehtavat":"Seurakunnallinen toiminta ja hengellinen palvelu","maanpuolustusmerkitys":"Yhteiskunnan henkisen kriisinsietokyvyn tukeminen"},
  {"nimi":"Virtain seurakunta","kunta":"Virrat","tyyppi":"seurakunta","lat":62.239,"lon":23.77,"paatehtavat":"Seurakunnallinen toiminta ja hengellinen palvelu","maanpuolustusmerkitys":"Yhteiskunnan henkisen kriisinsietokyvyn tukeminen"},
  {"nimi":"Ruoveden seurakunta","kunta":"Ruovesi","tyyppi":"seurakunta","lat":61.985,"lon":24.059,"paatehtavat":"Seurakunnallinen toiminta ja hengellinen palvelu","maanpuolustusmerkitys":"Yhteiskunnan henkisen kriisinsietokyvyn tukeminen"},
  {"nimi":"Mänttä-Vilppulan seurakunta","kunta":"Mänttä-Vilppula","tyyppi":"seurakunta","lat":62.03,"lon":24.627,"paatehtavat":"Seurakunnallinen toiminta ja hengellinen palvelu","maanpuolustusmerkitys":"Yhteiskunnan henkisen kriisinsietokyvyn tukeminen"},
  {"nimi":"Juupajoen seurakunta","kunta":"Juupajoki","tyyppi":"seurakunta","lat":61.799,"lon":24.37,"paatehtavat":"Seurakunnallinen toiminta ja hengellinen palvelu","maanpuolustusmerkitys":"Yhteiskunnan henkisen kriisinsietokyvyn tukeminen"},
  {"nimi":"Oriveden seurakunta","kunta":"Orivesi","tyyppi":"seurakunta","lat":61.676,"lon":24.357,"paatehtavat":"Seurakunnallinen toiminta ja hengellinen palvelu","maanpuolustusmerkitys":"Yhteiskunnan henkisen kriisinsietokyvyn tukeminen"},
  {"nimi":"Kuhmoisten seurakunta","kunta":"Kuhmoinen","tyyppi":"seurakunta","lat":61.56,"lon":25.185,"paatehtavat":"Seurakunnallinen toiminta ja hengellinen palvelu","maanpuolustusmerkitys":"Yhteiskunnan henkisen kriisinsietokyvyn tukeminen"},
  {"nimi":"Urjalan seurakunta","kunta":"Urjala","tyyppi":"seurakunta","lat":61.084,"lon":23.55,"paatehtavat":"Seurakunnallinen toiminta ja hengellinen palvelu","maanpuolustusmerkitys":"Yhteiskunnan henkisen kriisinsietokyvyn tukeminen"},
  {"nimi":"Punkalaitumen seurakunta","kunta":"Punkalaidun","tyyppi":"seurakunta","lat":61.111,"lon":22.907,"paatehtavat":"Seurakunnallinen toiminta ja hengellinen palvelu","maanpuolustusmerkitys":"Yhteiskunnan henkisen kriisinsietokyvyn tukeminen"}
]